{
  "আটোয়ারী": {
    "A+": [
      {
        "name": "জন",
        "phone": "017xxxxxxx",
        "location": "গ্রাম"
      }
    ],
    "A−": [
      {
        "name": "জন",
        "phone": "017xxxxxxx",
        "location": "গ্রাম"
      }
    ],
    "B+": [
      {
        "name": "জন",
        "phone": "017xxxxxxx",
        "location": "গ্রাম"
      }
    ],
    "B−": [
      {
        "name": "জন",
        "phone": "017xxxxxxx",
        "location": "গ্রাম"
      }
    ],
    "AB+": [
      {
        "name": "জন",
        "phone": "017xxxxxxx",
        "location": "গ্রাম"
      }
    ],
    "AB−": [
      {
        "name": "জন",
        "phone": "017xxxxxxx",
        "location": "গ্রাম"
      }
    ],
    "O+": [
      {
        "name": "জন",
        "phone": "017xxxxxxx",
        "location": "গ্রাম"
      }
    ],
    "O−": [
      {
        "name": "জন",
        "phone": "017xxxxxxx",
        "location": "গ্রাম"
      }
    ]
  },
  "তেঁতুলিয়া": {
    "A+": [
      {
        "name": "জন",
        "phone": "017xxxxxxx",
        "location": "গ্রাম"
      }
    ],
    "A−": [
      {
        "name": "জন",
        "phone": "017xxxxxxx",
        "location": "গ্রাম"
      }
    ],
    "B+": [
      {
        "name": "জন",
        "phone": "017xxxxxxx",
        "location": "গ্রাম"
      }
    ],
    "B−": [
      {
        "name": "জন",
        "phone": "017xxxxxxx",
        "location": "গ্রাম"
      }
    ],
    "AB+": [
      {
        "name": "জন",
        "phone": "017xxxxxxx",
        "location": "গ্রাম"
      }
    ],
    "AB−": [
      {
        "name": "জন",
        "phone": "017xxxxxxx",
        "location": "গ্রাম"
      }
    ],
    "O+": [
      {
        "name": "জন",
        "phone": "017xxxxxxx",
        "location": "গ্রাম"
      }
    ],
    "O−": [
      {
        "name": "জন",
        "phone": "017xxxxxxx",
        "location": "গ্রাম"
      }
    ]
  },
  "দেবীগঞ্জ": {
    "A+": [
      {
        "name": "জন",
        "phone": "017xxxxxxx",
        "location": "গ্রাম"
      }
    ],
    "A−": [
      {
        "name": "জন",
        "phone": "017xxxxxxx",
        "location": "গ্রাম"
      }
    ],
    "B+": [
      {
        "name": "জন",
        "phone": "017xxxxxxx",
        "location": "গ্রাম"
      }
    ],
    "B−": [
      {
        "name": "জন",
        "phone": "017xxxxxxx",
        "location": "গ্রাম"
      }
    ],
    "AB+": [
      {
        "name": "জন",
        "phone": "017xxxxxxx",
        "location": "গ্রাম"
      }
    ],
    "AB−": [
      {
        "name": "জন",
        "phone": "017xxxxxxx",
        "location": "গ্রাম"
      }
    ],
    "O+": [
      {
        "name": "জন",
        "phone": "017xxxxxxx",
        "location": "গ্রাম"
      }
    ],
    "O−": [
      {
        "name": "জন",
        "phone": "017xxxxxxx",
        "location": "গ্রাম"
      }
    ]
  },
  "পঞ্চগড় সদর": {
    "A+": [
      {
        "name": "জন",
        "phone": "017xxxxxxx",
        "location": "গ্রাম"
      }
    ],
    "A−": [
      {
        "name": "জন",
        "phone": "017xxxxxxx",
        "location": "গ্রাম"
      }
    ],
    "B+": [
      {
        "name": "জন",
        "phone": "017xxxxxxx",
        "location": "গ্রাম"
      }
    ],
    "B−": [
      {
        "name": "জন",
        "phone": "017xxxxxxx",
        "location": "গ্রাম"
      }
    ],
    "AB+": [
      {
        "name": "জন",
        "phone": "017xxxxxxx",
        "location": "গ্রাম"
      }
    ],
    "AB−": [
      {
        "name": "জন",
        "phone": "017xxxxxxx",
        "location": "গ্রাম"
      }
    ],
    "O+": [
      {
        "name": "জন",
        "phone": "017xxxxxxx",
        "location": "গ্রাম"
      }
    ],
    "O−": [
      {
        "name": "জন",
        "phone": "017xxxxxxx",
        "location": "গ্রাম"
      }
    ]
  },
  "বোদা": {
    "A+": [
      {
        "name": "জন",
        "phone": "017xxxxxxx",
        "location": "গ্রাম"
      }
    ],
    "A−": [
      {
        "name": "জন",
        "phone": "017xxxxxxx",
        "location": "গ্রাম"
      }
    ],
    "B+": [
      {
        "name": "জন",
        "phone": "017xxxxxxx",
        "location": "গ্রাম"
      }
    ],
    "B−": [
      {
        "name": "জন",
        "phone": "017xxxxxxx",
        "location": "গ্রাম"
      }
    ],
    "AB+": [
      {
        "name": "জন",
        "phone": "017xxxxxxx",
        "location": "গ্রাম"
      }
    ],
    "AB−": [
      {
        "name": "জন",
        "phone": "017xxxxxxx",
        "location": "গ্রাম"
      }
    ],
    "O+": [
      {
        "name": "জন",
        "phone": "017xxxxxxx",
        "location": "গ্রাম"
      }
    ],
    "O−": [
      {
        "name": "জন",
        "phone": "017xxxxxxx",
        "location": "গ্রাম"
      }
    ]
  }
}